[{"lat":49.234947,"lon":-123.027254,"type":"Fountain location:\nAberdeen"},{"lat":49.275858,"lon":-123.024141,"type":"Fountain location:\nAdanac"},{"lat":49.285554,"lon":-123.142392,"type":"Fountain location:\nAlexandria"},{"lat":49.26098,"lon":-123.184759,"type":"Fountain location:\nAlmond"},{"lat":49.278811,"lon":-123.106194,"type":"Fountain location:\nAndy Livingstone"},{"lat":49.277951,"lon":-123.103575,"type":"Fountain location:\nAndy Livingstone"},{"lat":49.262128,"lon":-123.155318,"type":"Fountain location:\nArbutus Greenway"},{"lat":49.248679,"lon":-123.157991,"type":"Fountain location:\nArbutus Village"},{"lat":49.285919,"lon":-123.120939,"type":"Fountain location:\nArt Phillips Park"},{"lat":49.245614,"lon":-123.175342,"type":"Fountain location:\nBalaclava"},{"lat":49.255191,"lon":-123.050071,"type":"Fountain location:\nBeaconsfield"},{"lat":49.215521,"lon":-123.056107,"type":"Fountain location:\nBobolink"},{"lat":49.24745,"lon":-123.066226,"type":"Fountain location:\nBrewers"},{"lat":49.275112,"lon":-123.139769,"type":"Fountain location:\nBurrard Civic Centre"},{"lat":49.290415,"lon":-123.050483,"type":"Fountain location:\nBurrard View"},{"lat":49.256926,"lon":-123.172514,"type":"Fountain location:\nCarnarvon"},{"lat":49.237223,"lon":-123.097143,"type":"Fountain location:\nCartier"},{"lat":49.249585,"lon":-123.191688,"type":"Fountain location:\nChaldecott"},{"lat":49.268012,"lon":-123.125901,"type":"Fountain location:\nCharleson"},{"lat":49.264372,"lon":-123.083134,"type":"Fountain location:\nChina Creek North"},{"lat":49.261644,"lon":-123.079061,"type":"Fountain location:\nChina Creek South"},{"lat":49.256746,"lon":-123.073107,"type":"Fountain location:\nClark"},{"lat":49.270699,"lon":-123.050137,"type":"Fountain location:\nClinton"},{"lat":49.271281,"lon":-123.051686,"type":"Fountain location:\nClinton"},{"lat":49.289871,"lon":-123.125385,"type":"Fountain location:\nCoal Harbour"},{"lat":49.2901697,"lon":-123.104505,"type":"Fountain location:\nCoal Harbour"},{"lat":49.236946,"lon":-123.03638,"type":"Fountain location:\nCollingwood"},{"lat":49.231825,"lon":-123.113005,"type":"Fountain location:\nColumbia"},{"lat":49.2617676,"lon":-123.16143,"type":"Fountain location:\nConnaught"},{"lat":49.262869,"lon":-123.159336,"type":"Fountain location:\nConnaught"},{"lat":49.2738086,"lon":-123.113057,"type":"Fountain location:\nCoopers'"},{"lat":49.272798,"lon":-123.114649,"type":"Fountain location:\nCoopers'"},{"lat":49.271632,"lon":-123.12572,"type":"Fountain location:\nDavid Lam"},{"lat":49.272394,"lon":-123.123289,"type":"Fountain location:\nDavid Lam"},{"lat":49.294985,"lon":-123.136001,"type":"Fountain location:\nDevonian Harbour"},{"lat":49.253089,"lon":-123.122317,"type":"Fountain location:\nDouglas"},{"lat":49.251936,"lon":-123.122502,"type":"Fountain location:\nDouglas"},{"lat":49.205406,"lon":-123.132849,"type":"Fountain location:\nEbisu"},{"lat":49.233484,"lon":-123.163401,"type":"Fountain location:\nElm"},{"lat":49.276991,"lon":-123.123796,"type":"Fountain location:\nEmery Barnes Dog Park"},{"lat":49.2765359,"lon":-123.124282,"type":"Fountain location:\nEmery Barnes Park"},{"lat":49.287419,"lon":-123.142573,"type":"Fountain location:\nEnglish Bay"},{"lat":49.286027,"lon":-123.143035,"type":"Fountain location:\nEnglish Bay"},{"lat":49.278896,"lon":-123.13802,"type":"Fountain location:\nEnglish Bay"},{"lat":49.2410466,"lon":-123.125112,"type":"Fountain location:\nEric Hamber"},{"lat":49.254842,"lon":-123.029979,"type":"Fountain location:\nFalaise"},{"lat":49.20713,"lon":-123.149337,"type":"Fountain location:\nFraser River"},{"lat":49.20642,"lon":-123.150808,"type":"Fountain location:\nFraser River"},{"lat":49.2112962,"lon":-123.042283,"type":"Fountain location:\nFraserview Golf"},{"lat":49.2139347,"lon":-123.051533,"type":"Fountain location:\nFraserview Golf"},{"lat":49.2082106,"lon":-123.045695,"type":"Fountain location:\nFraserview Golf"},{"lat":49.2123921,"lon":-123.051395,"type":"Fountain location:\nFraserview Golf"},{"lat":49.268389,"lon":-123.058428,"type":"Fountain location:\nGarden"},{"lat":49.236498,"lon":-123.031411,"type":"Fountain location:\nGaston"},{"lat":49.212417,"lon":-123.093602,"type":"Fountain location:\nGeorge"},{"lat":49.271802,"lon":-123.129793,"type":"Fountain location:\nGeorge Wainborn"},{"lat":49.273736,"lon":-123.070126,"type":"Fountain location:\nGrandview"},{"lat":49.2671275,"lon":-123.137756,"type":"Fountain location:\nGranville Loop Park"},{"lat":49.240977,"lon":-123.084994,"type":"Fountain location:\nGrays"},{"lat":49.26422,"lon":-123.095575,"type":"Fountain location:\nGuelph Park"},{"lat":49.291228,"lon":-123.12327,"type":"Fountain location:\nHarbour Green"},{"lat":49.290539,"lon":-123.12318,"type":"Fountain location:\nHarbour Green"},{"lat":49.290001,"lon":-123.121694,"type":"Fountain location:\nHarbour Green"},{"lat":49.28519,"lon":-123.128045,"type":"Fountain location:\nHaro & Bute mini-park"},{"lat":49.282563,"lon":-123.034264,"type":"Fountain location:\nHastings"},{"lat":49.283438,"lon":-123.034108,"type":"Fountain location:\nHastings"},{"lat":49.283144,"lon":-123.042959,"type":"Fountain location:\nHastings"},{"lat":49.280369,"lon":-123.040624,"type":"Fountain location:\nHastings Community"},{"lat":49.280379,"lon":-123.038221,"type":"Fountain location:\nHastings Community"},{"lat":49.2456626,"lon":-123.106969,"type":"Fountain location:\nHillcrest"},{"lat":49.244776,"lon":-123.107665,"type":"Fountain location:\nHillcrest"},{"lat":49.2710507,"lon":-123.110206,"type":"Fountain location:\nHinge Park"},{"lat":49.2719084,"lon":-123.191736,"type":"Fountain location:\nJericho Beach"},{"lat":49.281987,"lon":-123.136052,"type":"Fountain location:\nJervis and Burnaby"},{"lat":49.253929,"lon":-123.061986,"type":"Fountain location:\nJohn Hendry"},{"lat":49.264164,"lon":-123.107514,"type":"Fountain location:\nJonathan Rogers"},{"lat":49.263954,"lon":-123.045152,"type":"Fountain location:\nKaslo"},{"lat":49.238138,"lon":-123.07429,"type":"Fountain location:\nKensington"},{"lat":49.233331,"lon":-123.1572,"type":"Fountain location:\nKerrisdale Centennial"},{"lat":49.227059,"lon":-123.041882,"type":"Fountain location:\nKillarney"},{"lat":49.229195,"lon":-123.045343,"type":"Fountain location:\nKillarney"},{"lat":49.247325,"lon":-123.074579,"type":"Fountain location:\nKingcrest"},{"lat":49.274387,"lon":-123.153826,"type":"Fountain location:\nKisilano"},{"lat":49.275753,"lon":-123.152287,"type":"Fountain location:\nKitsilano"},{"lat":49.276739,"lon":-123.151743,"type":"Fountain location:\nKitsilano"},{"lat":49.2194057,"lon":-123.106335,"type":"Fountain location:\nLangara Golf Course"},{"lat":49.2237851,"lon":-123.112543,"type":"Fountain location:\nLangara Golf Course"},{"lat":49.2230752,"lon":-123.116336,"type":"Fountain location:\nLangara Golf Course"},{"lat":49.274969,"lon":-123.207164,"type":"Fountain location:\nLocarno"},{"lat":49.22997,"lon":-123.098511,"type":"Fountain location:\nMacDonald"},{"lat":49.2615753,"lon":-123.107009,"type":"Fountain location:\nMajor Mathews"},{"lat":49.22318,"lon":-123.159702,"type":"Fountain location:\nMaple Grove"},{"lat":49.223507,"lon":-123.160831,"type":"Fountain location:\nMaple Grove"},{"lat":49.205624,"lon":-123.138958,"type":"Fountain location:\nMarpole"},{"lat":49.267923,"lon":-123.180134,"type":"Fountain location:\nMcBride"},{"lat":49.2788422,"lon":-123.089442,"type":"Fountain location:\nMcLean Park"},{"lat":49.2205907,"lon":-123.169628,"type":"Fountain location:\nMcLeery Golf Course"},{"lat":49.2209551,"lon":-123.167863,"type":"Fountain location:\nMcLeery Golf Course"},{"lat":49.2203778,"lon":-123.170895,"type":"Fountain location:\nMcLeery Golf Course"},{"lat":49.236424,"lon":-123.029107,"type":"Fountain location:\nMelbourne"},{"lat":49.231241,"lon":-123.086739,"type":"Fountain location:\nMemorial South"},{"lat":49.2314231,"lon":-123.084589,"type":"Fountain location:\nMemorial South"},{"lat":49.243358,"lon":-123.187296,"type":"Fountain location:\nMemorial West"},{"lat":49.214828,"lon":-123.084599,"type":"Fountain location:\nMoberly"},{"lat":49.2153386,"lon":-123.0872,"type":"Fountain location:\nMoberly"},{"lat":49.287429,"lon":-123.142264,"type":"Fountain location:\nMorton"},{"lat":49.273192,"lon":-123.074217,"type":"Fountain location:\nMosaic Creek"},{"lat":49.256865,"lon":-123.106446,"type":"Fountain location:\nMount Pleasant"},{"lat":49.228277,"lon":-123.05692,"type":"Fountain location:\nNanaimo"},{"lat":49.282838,"lon":-123.129981,"type":"Fountain location:\nNelson"},{"lat":49.289431,"lon":-123.038691,"type":"Fountain location:\nNew Brighton"},{"lat":49.289268,"lon":-123.036666,"type":"Fountain location:\nNew Brighton"},{"lat":49.28959,"lon":-123.035531,"type":"Fountain location:\nNew Brighton"},{"lat":49.238173,"lon":-123.050828,"type":"Fountain location:\nNorquay"},{"lat":49.216585,"lon":-123.127387,"type":"Fountain location:\nOak"},{"lat":49.216607,"lon":-123.129122,"type":"Fountain location:\nOak"},{"lat":49.216882,"lon":-123.128155,"type":"Fountain location:\nOak"},{"lat":49.282901,"lon":-123.094057,"type":"Fountain location:\nOppenheimer"},{"lat":49.28287,"lon":-123.057199,"type":"Fountain location:\nPandora Park"},{"lat":49.2816629,"lon":-123.104505,"type":"Fountain location:\nPioneer Square"},{"lat":49.2846537,"lon":-123.101821,"type":"Fountain location:\nPortside"},{"lat":49.242275,"lon":-123.113543,"type":"Fountain location:\nQueen Elizabeth"},{"lat":49.239167,"lon":-123.111542,"type":"Fountain location:\nQueen Elizabeth"},{"lat":49.23742,"lon":-123.105621,"type":"Fountain location:\nQueen Elizabeth"},{"lat":49.24462,"lon":-123.148828,"type":"Fountain location:\nQuilchena"},{"lat":49.25211,"lon":-123.042086,"type":"Fountain location:\nRenfrew"},{"lat":49.205739,"lon":-123.050981,"type":"Fountain location:\nRiverfront"},{"lat":49.205755,"lon":-123.051817,"type":"Fountain location:\nRiverfront"},{"lat":49.257792,"lon":-123.091912,"type":"Fountain location:\nRobson"},{"lat":49.216811,"lon":-123.082434,"type":"Fountain location:\nRoss"},{"lat":49.216947,"lon":-123.082635,"type":"Fountain location:\nRoss"},{"lat":49.270148,"lon":-123.030627,"type":"Fountain location:\nRupert"},{"lat":49.273071,"lon":-123.030636,"type":"Fountain location:\nRupert"},{"lat":49.27112,"lon":-123.033079,"type":"Fountain location:\nRupert"},{"lat":49.2751248,"lon":-123.103111,"type":"Fountain location:\nSE False Creek"},{"lat":49.27099,"lon":-123.146205,"type":"Fountain location:\nSeaforth"},{"lat":49.244294,"lon":-123.048373,"type":"Fountain location:\nSlocan"},{"lat":49.2582608,"lon":-123.049711,"type":"Fountain location:\nSlocan Greenway"},{"lat":49.277484,"lon":-123.222396,"type":"Fountain location:\nSpanish Banks"},{"lat":49.313033,"lon":-123.142625,"type":"Fountain location:\nStanley"},{"lat":49.303,"lon":-123.130695,"type":"Fountain location:\nStanley Park - Lumbermen's Arch"},{"lat":49.292196,"lon":-123.146059,"type":"Fountain location:\nStanley Park - Tennis Courts"},{"lat":49.298105,"lon":-123.129746,"type":"Fountain location:\nStanley Park- A  Frame Washrooms"},{"lat":49.29988,"lon":-123.130947,"type":"Fountain location:\nStanley Park- Aquarium"},{"lat":49.306095,"lon":-123.137497,"type":"Fountain location:\nStanley Park- Aviary"},{"lat":49.3050743,"lon":-123.146132,"type":"Fountain location:\nStanley Park- Bridle Path"},{"lat":49.299111,"lon":-123.134117,"type":"Fountain location:\nStanley Park- Brockton Oval"},{"lat":49.306616,"lon":-123.142741,"type":"Fountain location:\nStanley Park- Brockton Point Lighthouse"},{"lat":49.2936001,"lon":-123.148596,"type":"Fountain location:\nStanley Park- Ceperley Washrooms"},{"lat":49.2937891,"lon":-123.149652,"type":"Fountain location:\nStanley Park- Cerperley Seawall"},{"lat":49.307347,"lon":-123.155447,"type":"Fountain location:\nStanley Park- Cricket Pavillion"},{"lat":49.292239,"lon":-123.147,"type":"Fountain location:\nStanley Park- Lawn Bowling"},{"lat":49.312421,"lon":-123.1427549999,"type":"Fountain location:\nStanley Park- Pavillion"},{"lat":49.3015616,"lon":-123.134529,"type":"Fountain location:\nStanley Park- Pavillion Playground"},{"lat":49.309337,"lon":-123.146245,"type":"Fountain location:\nStanley Park- Prospect Point"},{"lat":49.3126584,"lon":-123.142367,"type":"Fountain location:\nStanley Park- Prospect Point Washrooms"},{"lat":49.293007,"lon":-123.146487,"type":"Fountain location:\nStanley Park- Putting Green"},{"lat":49.298994,"lon":-123.120676,"type":"Fountain location:\nStanley Park- Rose Garden Playground"},{"lat":49.2984252,"lon":-123.150394,"type":"Fountain location:\nStanley Park- Second Beach"},{"lat":49.294943,"lon":-123.150223,"type":"Fountain location:\nStanley Park- Second Beach"},{"lat":49.2954672,"lon":-123.151056,"type":"Fountain location:\nStanley Park- Second Beach Pool"},{"lat":49.312552,"lon":-123.141011,"type":"Fountain location:\nStanley Park- Shuffleboard"},{"lat":49.303156,"lon":-123.156335,"type":"Fountain location:\nStanley Park- Third Beach"},{"lat":49.3031665,"lon":-123.156283,"type":"Fountain location:\nStanley Park- Third Beach Seawall"},{"lat":49.299417,"lon":-123.121263,"type":"Fountain location:\nStanley Park- Totem Poles"},{"lat":49.299691,"lon":-123.126188,"type":"Fountain location:\nStanley Park- Upper Rose Garden"},{"lat":49.2944973,"lon":-123.146113,"type":"Fountain location:\nStanley Park-Pitch and Putt Course"},{"lat":49.310653,"lon":-123.148332,"type":"Fountain location:\nStanley Park-Prospect Point"},{"lat":49.275873,"lon":-123.085478,"type":"Fountain location:\nStrathcona"},{"lat":49.274827,"lon":-123.086689,"type":"Fountain location:\nStrathcona"},{"lat":49.266893,"lon":-123.035669,"type":"Fountain location:\nSunrise"},{"lat":49.222862,"lon":-123.096496,"type":"Fountain location:\nSunset"},{"lat":49.2789007,"lon":-123.137935,"type":"Fountain location:\nSunset Beach"},{"lat":49.269121,"lon":-123.134031,"type":"Fountain location:\nSutcliffe"},{"lat":49.257356,"lon":-123.09859,"type":"Fountain location:\nTeaswamp"},{"lat":49.2296077,"lon":-123.070191,"type":"Fountain location:\nTecumseh"},{"lat":49.228371,"lon":-123.118266,"type":"Fountain location:\nTisdall"},{"lat":49.251273,"lon":-123.163837,"type":"Fountain location:\nTrafalgar"},{"lat":49.2749603,"lon":-123.093122,"type":"Fountain location:\nTrillium"},{"lat":49.2386154,"lon":-123.129939,"type":"Fountain location:\nVanDusen Gardens"},{"lat":49.2394013,"lon":-123.129439,"type":"Fountain location:\nVanDusen Gardens"},{"lat":49.271811,"lon":-123.066732,"type":"Fountain location:\nVictoria"},{"lat":49.281845,"lon":-123.110066,"type":"Fountain location:\nVictory Square"},{"lat":49.263048,"lon":-123.073108,"type":"Fountain location:\nW.C. Shelly"},{"lat":49.266021,"lon":-123.205262,"type":"Fountain location:\nWest Point Grey"},{"lat":49.266937,"lon":-123.205107,"type":"Fountain location:\nWest Point Grey"},{"lat":49.215839,"lon":-123.113059,"type":"Fountain location:\nWinona"},{"lat":49.278442,"lon":-123.073424,"type":"Fountain location:\nWoodland"},{"lat":49.2663411,"lon":-123.125914,"type":"Bottle Filling Station location: \nCharleson Park Pumping Station"},{"lat":49.257924,"lon":-123.041381,"type":"Bottle Filling Station location: \nGrandview Hwy Pumping Station"},{"lat":49.269566,"lon":-123.136177,"type":"Bottle Filling Station location: \nGranville Island Pumping Station"},{"lat":49.2733345,"lon":-123.131579,"type":"Bottle Filling Station location: \nGranville St Pumping Station"},{"lat":49.2737142,"lon":-123.1527806,"type":"Bottle Filling Station location: \nKitsilano Pumping Station"},{"lat":49.2730368,"lon":-123.098886,"type":"Bottle Filling Station location: \nThornton Park Pumping Station"},{"lat":49.265329,"lon":-123.142081,"type":"Fountain location:\n1650 W 7th"},{"lat":49.245762,"lon":-123.10102,"type":"Fountain location:\n28th & Main"},{"lat":49.237587,"lon":-123.127384,"type":"Fountain location:\n37th & Oak"},{"lat":49.237446,"lon":-123.105647,"type":"Fountain location:\n37th & Ontario"},{"lat":49.2371952,"lon":-123.09728295,"type":"Fountain location:\n37th & Prince Edward"},{"lat":49.234752,"lon":-123.058912,"type":"Fountain location:\n39th & Nanaimo"},{"lat":49.26822777,"lon":-123.152706,"type":"Fountain location:\n4th & Arbutus"},{"lat":49.219505,"lon":-123.106415,"type":"Fountain location:\n56th & Ontario"},{"lat":49.2646599,"lon":-123.112967,"type":"Fountain location:\n7th & Yukon"},{"lat":49.2187548,"lon":-123.055044,"type":"Fountain location:\nAshburn & Elliot"},{"lat":49.262875,"lon":-123.105026,"type":"Fountain location:\nBroadway & Ontario"},{"lat":49.26423514,"lon":-123.1666474,"type":"Fountain location:\nBroadway & Stephens"},{"lat":49.262066,"lon":-123.065619,"type":"Fountain location:\nBroadway & Victoria"},{"lat":49.279247545381,"lon":-123.12923210062,"type":"Fountain location:\nBurrard & Davie"},{"lat":49.28451988,"lon":-123.13955439,"type":"Fountain location:\nCardero & Burnaby"},{"lat":49.2678194,"lon":-123.06939067,"type":"Fountain location:\nCommercial & 3rd"},{"lat":49.2867384,"lon":-123.136516,"type":"Fountain location:\nComox & Cardero"},{"lat":49.29067407,"lon":-123.14264686,"type":"Fountain location:\nComox & Chilco"},{"lat":49.2887857,"lon":-123.13969,"type":"Fountain location:\nComox & Denman"},{"lat":49.28922483,"lon":-123.13854854,"type":"Fountain location:\nDenman & Nelson"},{"lat":49.2365274,"lon":-123.084037,"type":"Fountain location:\nElgin & 37th"},{"lat":49.28977703,"lon":-123.14128655,"type":"Fountain location:\nGilford & Comox"},{"lat":49.29049866,"lon":-123.14022516,"type":"Fountain location:\nGilford & Nelson"},{"lat":49.2173117,"lon":-123.139586,"type":"Fountain location:\nGranville & 59th"},{"lat":49.281542,"lon":-123.119937,"type":"Fountain location:\nGranville & Robson"},{"lat":49.281386,"lon":-123.097231,"type":"Fountain location:\nHastings & Gore"},{"lat":49.280998,"lon":-123.054448,"type":"Fountain location:\nHastings & Kamloops"},{"lat":49.2485804,"lon":-123.10123907,"type":"Fountain location:\nKing Edward & Main"},{"lat":49.2610594,"lon":-123.100784,"type":"Fountain location:\nMain & 11th"},{"lat":49.28571023,"lon":-123.13333675,"type":"Fountain location:\nNelson & Broughton"},{"lat":49.282385,"lon":-123.140508,"type":"Fountain location:\nNicola & Beach"},{"lat":49.28306599,"lon":-123.12229054,"type":"Fountain location:\nRobson & Burrard"},{"lat":49.29345716,"lon":-123.13827002,"type":"Fountain location:\nRobson & Chilco"},{"lat":49.2775724,"lon":-123.087389,"type":"Fountain location:\nUnion & Hawks"},{"lat":49.208696192272,"lon":-123.14027652686,"type":"Temporary Fountain location:\nNortheast corner of 70th and Granville"},{"lat":49.262432744082,"lon":-123.06955237358,"type":"Temporary Fountain location:\nNortheast corner of Commercial and Broadway\u00a0"},{"lat":49.2798072,"lon":-123.110301,"type":"Temporary Fountain location:\nNortheast corner of Dunsmuir and Beatty"},{"lat":49.2304335,"lon":-123.133399,"type":"Temporary Fountain location:\nNortheast corner of Selkirk and 45th"},{"lat":49.2701294,"lon":-123.104467,"type":"Temporary Fountain location:\nSoutheast corner of Ontario and 1st"}]